export const ALECO_SCOPE = [
  {
    "district": "First District (North Albay)",
    "municipalities": [
      {
        "name": "Bacacay",
        "barangays": [
          {
            "name": "Baclayon",
            "puroks": [
              "Purok 1",
              "Purok 2",
              "Purok 3",
              "Purok 4",
              "Purok 5",
              "Purok 6",
              "Purok 7"
            ],
            "lat": 13.2824068,
            "lng": 123.78948
          },
          {
            "name": "Banao",
            "puroks": [
              "Purok 1",
              "Purok 2",
              "Purok 3",
              "Purok 4",
              "Purok 5",
              "Purok 6",
              "Purok 7"
            ],
            "lat": 13.2530554,
            "lng": 123.8104222
          },
          {
            "name": "Barangay 1 (Poblacion)",
            "puroks": [
              "Purok 1",
              "Purok 2",
              "Purok 3",
              "Purok 4",
              "Purok 5"
            ],
            "lat": 13.2959838,
            "lng": 123.7968103
          },
          {
            "name": "Barangay 2 (Poblacion)",
            "puroks": [
              "Purok 1",
              "Purok 2",
              "Purok 3",
              "Purok 4",
              "Purok 5"
            ],
            "lat": 13.2945795,
            "lng": 123.7957632
          },
          {
            "name": "Barangay 3 (Poblacion)",
            "puroks": [
              "Purok 1",
              "Purok 2",
              "Purok 3",
              "Purok 4",
              "Purok 5"
            ],
            "lat": 13.2970296,
            "lng": 123.7898291
          },
          {
            "name": "Barangay 4 (Poblacion)",
            "puroks": [
              "Purok 1",
              "Purok 2",
              "Purok 3",
              "Purok 4",
              "Purok 5"
            ],
            "lat": 13.2959106,
            "lng": 123.7900036
          },
          {
            "name": "Barangay 5 (Poblacion)",
            "puroks": [
              "Purok 1",
              "Purok 2",
              "Purok 3",
              "Purok 4",
              "Purok 5"
            ],
            "lat": 13.2952606,
            "lng": 123.7891309
          },
          {
            "name": "Barangay 6 (Poblacion)",
            "puroks": [
              "Purok 1",
              "Purok 2",
              "Purok 3",
              "Purok 4",
              "Purok 5"
            ],
            "lat": 13.2929661,
            "lng": 123.7961122
          },
          {
            "name": "Barangay 7 (Poblacion)",
            "puroks": [
              "Purok 1",
              "Purok 2",
              "Purok 3",
              "Purok 4",
              "Purok 5"
            ],
            "lat": 13.293828,
            "lng": 123.7913999
          },
          {
            "name": "Barangay 8 (Poblacion)",
            "puroks": [
              "Purok 1",
              "Purok 2",
              "Purok 3",
              "Purok 4",
              "Purok 5"
            ],
            "lat": 13.292839,
            "lng": 123.791749
          },
          {
            "name": "Barangay 9 (Poblacion)",
            "puroks": [
              "Purok 1",
              "Purok 2",
              "Purok 3",
              "Purok 4",
              "Purok 5"
            ],
            "lat": 13.2906237,
            "lng": 123.7971594
          },
          {
            "name": "Barangay 10 (Poblacion)",
            "puroks": [
              "Purok 1",
              "Purok 2",
              "Purok 3",
              "Purok 4",
              "Purok 5"
            ],
            "lat": 13.2925427,
            "lng": 123.7886876
          },
          {
            "name": "Barangay 11 (Poblacion)",
            "puroks": [
              "Purok 1",
              "Purok 2",
              "Purok 3",
              "Purok 4",
              "Purok 5"
            ],
            "lat": 13.2914869,
            "lng": 123.7903527
          },
          {
            "name": "Barangay 12 (Poblacion)",
            "puroks": [
              "Purok 1",
              "Purok 2",
              "Purok 3",
              "Purok 4",
              "Purok 5"
            ],
            "lat": 13.2912001,
            "lng": 123.7912254
          },
          {
            "name": "Barangay 13 (Poblacion)",
            "puroks": [
              "Purok 1",
              "Purok 2",
              "Purok 3",
              "Purok 4",
              "Purok 5"
            ],
            "lat": 13.289793,
            "lng": 123.7943669
          },
          {
            "name": "Barangay 14 (Poblacion)",
            "puroks": [
              "Purok 1",
              "Purok 2",
              "Purok 3",
              "Purok 4",
              "Purok 5"
            ],
            "lat": 13.2893803,
            "lng": 123.7887819
          },
          {
            "name": "Bariw",
            "puroks": [
              "Purok 1",
              "Purok 2",
              "Purok 3",
              "Purok 4",
              "Purok 5",
              "Purok 6",
              "Purok 7"
            ],
            "lat": 13.2515819,
            "lng": 123.8453152
          },
          {
            "name": "Basud",
            "puroks": [
              "Purok 1",
              "Purok 2",
              "Purok 3",
              "Purok 4",
              "Purok 5",
              "Purok 6",
              "Purok 7"
            ],
            "lat": 13.2686664,
            "lng": 123.7978574
          },
          {
            "name": "Bayandong",
            "puroks": [
              "Purok 1",
              "Purok 2",
              "Purok 3",
              "Purok 4",
              "Purok 5",
              "Purok 6",
              "Purok 7"
            ],
            "lat": 13.2722115,
            "lng": 123.7824983
          },
          {
            "name": "Bonga",
            "puroks": [
              "Purok 1",
              "Purok 2",
              "Purok 3",
              "Purok 4",
              "Purok 5",
              "Purok 6",
              "Purok 7"
            ],
            "lat": 13.285544,
            "lng": 123.7601531
          },
          {
            "name": "Buang",
            "puroks": [
              "Purok 1",
              "Purok 2",
              "Purok 3",
              "Purok 4",
              "Purok 5",
              "Purok 6",
              "Purok 7"
            ],
            "lat": 13.3395632,
            "lng": 123.8662448
          },
          {
            "name": "Busdac",
            "puroks": [
              "Purok 1",
              "Purok 2",
              "Purok 3",
              "Purok 4",
              "Purok 5",
              "Purok 6",
              "Purok 7"
            ],
            "lat": 13.3211683,
            "lng": 123.9220336
          },
          {
            "name": "Cabasan",
            "puroks": [
              "Purok 1",
              "Purok 2",
              "Purok 3",
              "Purok 4",
              "Purok 5",
              "Purok 6",
              "Purok 7"
            ],
            "lat": 13.3170669,
            "lng": 123.882985
          },
          {
            "name": "Cagbulacao",
            "puroks": [
              "Purok 1",
              "Purok 2",
              "Purok 3",
              "Purok 4",
              "Purok 5",
              "Purok 6",
              "Purok 7"
            ],
            "lat": 13.277969,
            "lng": 123.8774052
          },
          {
            "name": "Cagraray",
            "puroks": [
              "Purok 1",
              "Purok 2",
              "Purok 3",
              "Purok 4",
              "Purok 5",
              "Purok 6",
              "Purok 7"
            ],
            "lat": 13.2952203,
            "lng": 123.8871696
          },
          {
            "name": "Cajogutan",
            "puroks": [
              "Purok 1",
              "Purok 2",
              "Purok 3",
              "Purok 4",
              "Purok 5",
              "Purok 6",
              "Purok 7"
            ],
            "lat": 13.2869698,
            "lng": 123.8126191
          },
          {
            "name": "Cawayan",
            "puroks": [
              "Purok 1",
              "Purok 2",
              "Purok 3",
              "Purok 4",
              "Purok 5",
              "Purok 6",
              "Purok 7"
            ],
            "lat": 13.3004112,
            "lng": 123.8941434
          },
          {
            "name": "Damacan",
            "puroks": [
              "Purok 1",
              "Purok 2",
              "Purok 3",
              "Purok 4",
              "Purok 5",
              "Purok 6",
              "Purok 7"
            ],
            "lat": 13.2580059,
            "lng": 123.8774052
          },
          {
            "name": "Gubat Ilawod",
            "puroks": [
              "Purok 1",
              "Purok 2",
              "Purok 3",
              "Purok 4",
              "Purok 5",
              "Purok 6",
              "Purok 7"
            ],
            "lat": 13.2871983,
            "lng": 123.7824983
          },
          {
            "name": "Gubat Iraya",
            "puroks": [
              "Purok 1",
              "Purok 2",
              "Purok 3",
              "Purok 4",
              "Purok 5",
              "Purok 6",
              "Purok 7"
            ],
            "lat": 13.283038,
            "lng": 123.7769125
          },
          {
            "name": "Hindi",
            "puroks": [
              "Purok 1",
              "Purok 2",
              "Purok 3",
              "Purok 4",
              "Purok 5",
              "Purok 6",
              "Purok 7"
            ],
            "lat": 13.2980271,
            "lng": 123.7769125
          },
          {
            "name": "Igang",
            "puroks": [
              "Purok 1",
              "Purok 2",
              "Purok 3",
              "Purok 4",
              "Purok 5",
              "Purok 6",
              "Purok 7"
            ],
            "lat": 13.2903071,
            "lng": 123.803442
          },
          {
            "name": "Langaton",
            "puroks": [
              "Purok 1",
              "Purok 2",
              "Purok 3",
              "Purok 4",
              "Purok 5",
              "Purok 6",
              "Purok 7"
            ],
            "lat": 13.3197366,
            "lng": 123.9066951
          },
          {
            "name": "Manaet",
            "puroks": [
              "Purok 1",
              "Purok 2",
              "Purok 3",
              "Purok 4",
              "Purok 5",
              "Purok 6",
              "Purok 7"
            ],
            "lat": 13.293381,
            "lng": 123.8578735
          },
          {
            "name": "Mapulang Daga",
            "puroks": [
              "Purok 1",
              "Purok 2",
              "Purok 3",
              "Purok 4",
              "Purok 5",
              "Purok 6",
              "Purok 7"
            ],
            "lat": 13.2540667,
            "lng": 123.8620592
          },
          {
            "name": "Mataas",
            "puroks": [
              "Purok 1",
              "Purok 2",
              "Purok 3",
              "Purok 4",
              "Purok 5",
              "Purok 6",
              "Purok 7"
            ],
            "lat": 13.2372116,
            "lng": 123.882985
          },
          {
            "name": "Misibis",
            "puroks": [
              "Purok 1",
              "Purok 2",
              "Purok 3",
              "Purok 4",
              "Purok 5",
              "Purok 6",
              "Purok 7"
            ],
            "lat": 13.2496712,
            "lng": 123.8997221
          },
          {
            "name": "Nahapunan",
            "puroks": [
              "Purok 1",
              "Purok 2",
              "Purok 3",
              "Purok 4",
              "Purok 5",
              "Purok 6",
              "Purok 7"
            ],
            "lat": 13.2632366,
            "lng": 123.8341509
          },
          {
            "name": "Namanday",
            "puroks": [
              "Purok 1",
              "Purok 2",
              "Purok 3",
              "Purok 4",
              "Purok 5",
              "Purok 6",
              "Purok 7"
            ],
            "lat": 13.318645,
            "lng": 123.9387637
          },
          {
            "name": "Namantao",
            "puroks": [
              "Purok 1",
              "Purok 2",
              "Purok 3",
              "Purok 4",
              "Purok 5",
              "Purok 6",
              "Purok 7"
            ],
            "lat": 13.2704972,
            "lng": 123.860664
          },
          {
            "name": "Napao",
            "puroks": [
              "Purok 1",
              "Purok 2",
              "Purok 3",
              "Purok 4",
              "Purok 5",
              "Purok 6",
              "Purok 7"
            ],
            "lat": 13.3254199,
            "lng": 123.860664
          },
          {
            "name": "Panarayon",
            "puroks": [
              "Purok 1",
              "Purok 2",
              "Purok 3",
              "Purok 4",
              "Purok 5",
              "Purok 6",
              "Purok 7"
            ],
            "lat": 13.3065626,
            "lng": 123.778309
          },
          {
            "name": "Pigcobohan",
            "puroks": [
              "Purok 1",
              "Purok 2",
              "Purok 3",
              "Purok 4",
              "Purok 5",
              "Purok 6",
              "Purok 7"
            ],
            "lat": 13.3095551,
            "lng": 123.8997221
          },
          {
            "name": "Pili Ilawod",
            "puroks": [
              "Purok 1",
              "Purok 2",
              "Purok 3",
              "Purok 4",
              "Purok 5",
              "Purok 6",
              "Purok 7"
            ],
            "lat": 13.2590795,
            "lng": 123.8285682
          },
          {
            "name": "Pili Iraya",
            "puroks": [
              "Purok 1",
              "Purok 2",
              "Purok 3",
              "Purok 4",
              "Purok 5",
              "Purok 6",
              "Purok 7"
            ],
            "lat": 13.2711544,
            "lng": 123.81461
          },
          {
            "name": "Pongco",
            "puroks": [
              "Purok 1",
              "Purok 2",
              "Purok 3",
              "Purok 4",
              "Purok 5",
              "Purok 6",
              "Purok 7"
            ],
            "lat": 13.3318236,
            "lng": 123.8927487
          },
          {
            "name": "San Pablo",
            "puroks": [
              "Purok 1",
              "Purok 2",
              "Purok 3",
              "Purok 4",
              "Purok 5",
              "Purok 6",
              "Purok 7"
            ],
            "lat": 13.3245316,
            "lng": 123.8997221
          },
          {
            "name": "San Pedro",
            "puroks": [
              "Purok 1",
              "Purok 2",
              "Purok 3",
              "Purok 4",
              "Purok 5",
              "Purok 6",
              "Purok 7"
            ],
            "lat": 13.2738652,
            "lng": 123.8048381
          },
          {
            "name": "Sogod",
            "puroks": [
              "Purok 1",
              "Purok 2",
              "Purok 3",
              "Purok 4",
              "Purok 5",
              "Purok 6",
              "Purok 7"
            ],
            "lat": 13.3096948,
            "lng": 123.7657399
          },
          {
            "name": "Sula",
            "puroks": [
              "Purok 1",
              "Purok 2",
              "Purok 3",
              "Purok 4",
              "Purok 5",
              "Purok 6",
              "Purok 7"
            ],
            "lat": 13.2355616,
            "lng": 123.860664
          },
          {
            "name": "Tambilagao",
            "puroks": [
              "Purok 1",
              "Purok 2",
              "Purok 3",
              "Purok 4",
              "Purok 5",
              "Purok 6",
              "Purok 7"
            ],
            "lat": 13.3120264,
            "lng": 123.9164563
          },
          {
            "name": "Tambongon",
            "puroks": [
              "Purok 1",
              "Purok 2",
              "Purok 3",
              "Purok 4",
              "Purok 5",
              "Purok 6",
              "Purok 7"
            ],
            "lat": 13.2438906,
            "lng": 123.8383377
          },
          {
            "name": "Tanagan",
            "puroks": [
              "Purok 1",
              "Purok 2",
              "Purok 3",
              "Purok 4",
              "Purok 5",
              "Purok 6",
              "Purok 7"
            ],
            "lat": 13.3095991,
            "lng": 123.8662448
          },
          {
            "name": "Uson",
            "puroks": [
              "Purok 1",
              "Purok 2",
              "Purok 3",
              "Purok 4",
              "Purok 5",
              "Purok 6",
              "Purok 7"
            ],
            "lat": 13.3370405,
            "lng": 123.882985
          },
          {
            "name": "Vinisitahan-Basud",
            "puroks": [
              "Purok 1",
              "Purok 2",
              "Purok 3",
              "Purok 4",
              "Purok 5",
              "Purok 6",
              "Purok 7"
            ],
            "lat": 13.2832327,
            "lng": 123.8006498
          },
          {
            "name": "Vinisitahan-Napao",
            "puroks": [
              "Purok 1",
              "Purok 2",
              "Purok 3",
              "Purok 4",
              "Purok 5",
              "Purok 6",
              "Purok 7"
            ],
            "lat": 13.3301925,
            "lng": 123.8704301
          }
        ]
      },
      {
        "name": "Malilipot",
        "barangays": [
          {
            "name": "Barangay I (Poblacion)",
            "puroks": [
              "Purok 1",
              "Purok 2",
              "Purok 3",
              "Purok 4",
              "Purok 5"
            ],
            "lat": 13.3103373,
            "lng": 123.7364055
          },
          {
            "name": "Barangay II (Poblacion)",
            "puroks": [
              "Purok 1",
              "Purok 2",
              "Purok 3",
              "Purok 4",
              "Purok 5"
            ],
            "lat": 13.3191372,
            "lng": 123.7381518
          },
          {
            "name": "Barangay III (Poblacion)",
            "puroks": [
              "Purok 1",
              "Purok 2",
              "Purok 3",
              "Purok 4",
              "Purok 5"
            ],
            "lat": 13.3219991,
            "lng": 123.7419937
          },
          {
            "name": "Barangay IV (Poblacion)",
            "puroks": [
              "Purok 1",
              "Purok 2",
              "Purok 3",
              "Purok 4",
              "Purok 5"
            ],
            "lat": 13.3221064,
            "lng": 123.737104
          },
          {
            "name": "Barangay V (Poblacion)",
            "puroks": [
              "Purok 1",
              "Purok 2",
              "Purok 3",
              "Purok 4",
              "Purok 5"
            ],
            "lat": 13.3086738,
            "lng": 123.7308169
          },
          {
            "name": "Binitayan",
            "puroks": [
              "Purok 1",
              "Purok 2",
              "Purok 3",
              "Purok 4",
              "Purok 5",
              "Purok 6",
              "Purok 7"
            ],
            "lat": 13.3119902,
            "lng": 123.7587563
          },
          {
            "name": "Calbayog",
            "puroks": [
              "Purok 1",
              "Purok 2",
              "Purok 3",
              "Purok 4",
              "Purok 5",
              "Purok 6",
              "Purok 7"
            ],
            "lat": 13.2822255,
            "lng": 123.7154467
          },
          {
            "name": "Canaway",
            "puroks": [
              "Purok 1",
              "Purok 2",
              "Purok 3",
              "Purok 4",
              "Purok 5",
              "Purok 6",
              "Purok 7"
            ],
            "lat": 13.3151404,
            "lng": 123.7126518
          },
          {
            "name": "Salvacion",
            "puroks": [
              "Purok 1",
              "Purok 2",
              "Purok 3",
              "Purok 4",
              "Purok 5",
              "Purok 6",
              "Purok 7"
            ],
            "lat": 13.34624,
            "lng": 123.8550829
          },
          {
            "name": "San Antonio Santicon",
            "puroks": [
              "Purok 1",
              "Purok 2",
              "Purok 3",
              "Purok 4",
              "Purok 5",
              "Purok 6",
              "Purok 7"
            ],
            "lat": 13.3460422,
            "lng": 123.8481061
          },
          {
            "name": "San Antonio Sulong",
            "puroks": [
              "Purok 1",
              "Purok 2",
              "Purok 3",
              "Purok 4",
              "Purok 5",
              "Purok 6",
              "Purok 7"
            ],
            "lat": 13.336471,
            "lng": 123.8453152
          },
          {
            "name": "San Francisco",
            "puroks": [
              "Purok 1",
              "Purok 2",
              "Purok 3",
              "Purok 4",
              "Purok 5",
              "Purok 6",
              "Purok 7"
            ],
            "lat": 13.3122048,
            "lng": 123.7489785
          },
          {
            "name": "San Isidro Ilawod",
            "puroks": [
              "Purok 1",
              "Purok 2",
              "Purok 3",
              "Purok 4",
              "Purok 5",
              "Purok 6",
              "Purok 7"
            ],
            "lat": 13.3288766,
            "lng": 123.7378026
          },
          {
            "name": "San Isidro Iraya",
            "puroks": [
              "Purok 1",
              "Purok 2",
              "Purok 3",
              "Purok 4",
              "Purok 5",
              "Purok 6",
              "Purok 7"
            ],
            "lat": 13.331388,
            "lng": 123.7210362
          },
          {
            "name": "San Jose",
            "puroks": [
              "Purok 1",
              "Purok 2",
              "Purok 3",
              "Purok 4",
              "Purok 5",
              "Purok 6",
              "Purok 7"
            ],
            "lat": 13.3007494,
            "lng": 123.7503754
          },
          {
            "name": "San Roque",
            "puroks": [
              "Purok 1",
              "Purok 2",
              "Purok 3",
              "Purok 4",
              "Purok 5",
              "Purok 6",
              "Purok 7"
            ],
            "lat": 13.2836801,
            "lng": 123.7308169
          },
          {
            "name": "Santa Cruz",
            "puroks": [
              "Purok 1",
              "Purok 2",
              "Purok 3",
              "Purok 4",
              "Purok 5",
              "Purok 6",
              "Purok 7"
            ],
            "lat": 13.3190911,
            "lng": 123.7280225
          },
          {
            "name": "Santa Teresa",
            "puroks": [
              "Purok 1",
              "Purok 2",
              "Purok 3",
              "Purok 4",
              "Purok 5",
              "Purok 6",
              "Purok 7"
            ],
            "lat": 13.3070017,
            "lng": 123.7419937
          }
        ]
      },
      {
        "name": "Malinao",
        "barangays": [
          {
            "name": "Awang",
            "puroks": [
              "Purok 1",
              "Purok 2",
              "Purok 3",
              "Purok 4",
              "Purok 5",
              "Purok 6",
              "Purok 7"
            ],
            "lat": 13.3705943,
            "lng": 123.6930855
          },
          {
            "name": "Bagatangki",
            "puroks": [
              "Purok 1",
              "Purok 2",
              "Purok 3",
              "Purok 4",
              "Purok 5",
              "Purok 6",
              "Purok 7"
            ],
            "lat": 13.3902593,
            "lng": 123.6119814
          },
          {
            "name": "Bagumbayan",
            "puroks": [
              "Purok 1",
              "Purok 2",
              "Purok 3",
              "Purok 4",
              "Purok 5",
              "Purok 6",
              "Purok 7"
            ],
            "lat": 13.3963389,
            "lng": 123.7007728
          },
          {
            "name": "Balading",
            "puroks": [
              "Purok 1",
              "Purok 2",
              "Purok 3",
              "Purok 4",
              "Purok 5",
              "Purok 6",
              "Purok 7"
            ],
            "lat": 13.3880924,
            "lng": 123.7098569
          },
          {
            "name": "Balza",
            "puroks": [
              "Purok 1",
              "Purok 2",
              "Purok 3",
              "Purok 4",
              "Purok 5",
              "Purok 6",
              "Purok 7"
            ],
            "lat": 13.4058286,
            "lng": 123.7000739
          },
          {
            "name": "Bariw",
            "puroks": [
              "Purok 1",
              "Purok 2",
              "Purok 3",
              "Purok 4",
              "Purok 5",
              "Purok 6",
              "Purok 7"
            ],
            "lat": 13.3832895,
            "lng": 123.7168441
          },
          {
            "name": "Baybay",
            "puroks": [
              "Purok 1",
              "Purok 2",
              "Purok 3",
              "Purok 4",
              "Purok 5",
              "Purok 6",
              "Purok 7"
            ],
            "lat": 13.4066491,
            "lng": 123.7112544
          },
          {
            "name": "Bulang",
            "puroks": [
              "Purok 1",
              "Purok 2",
              "Purok 3",
              "Purok 4",
              "Purok 5",
              "Purok 6",
              "Purok 7"
            ],
            "lat": 13.3752169,
            "lng": 123.6455502
          },
          {
            "name": "Burabod",
            "puroks": [
              "Purok 1",
              "Purok 2",
              "Purok 3",
              "Purok 4",
              "Purok 5",
              "Purok 6",
              "Purok 7"
            ],
            "lat": 13.4250326,
            "lng": 123.6888922
          },
          {
            "name": "Cabunturan",
            "puroks": [
              "Purok 1",
              "Purok 2",
              "Purok 3",
              "Purok 4",
              "Purok 5",
              "Purok 6",
              "Purok 7"
            ],
            "lat": 13.4175226,
            "lng": 123.6888922
          },
          {
            "name": "Comun",
            "puroks": [
              "Purok 1",
              "Purok 2",
              "Purok 3",
              "Purok 4",
              "Purok 5",
              "Purok 6",
              "Purok 7"
            ],
            "lat": 13.3487205,
            "lng": 123.6637283
          },
          {
            "name": "Diaro",
            "puroks": [
              "Purok 1",
              "Purok 2",
              "Purok 3",
              "Purok 4",
              "Purok 5",
              "Purok 6",
              "Purok 7"
            ],
            "lat": 13.3737448,
            "lng": 123.6637283
          },
          {
            "name": "Estancia",
            "puroks": [
              "Purok 1",
              "Purok 2",
              "Purok 3",
              "Purok 4",
              "Purok 5",
              "Purok 6",
              "Purok 7"
            ],
            "lat": 13.3580964,
            "lng": 123.6763111
          },
          {
            "name": "Jonop",
            "puroks": [
              "Purok 1",
              "Purok 2",
              "Purok 3",
              "Purok 4",
              "Purok 5",
              "Purok 6",
              "Purok 7"
            ],
            "lat": 13.422928,
            "lng": 123.7028692
          },
          {
            "name": "Labnig",
            "puroks": [
              "Purok 1",
              "Purok 2",
              "Purok 3",
              "Purok 4",
              "Purok 5",
              "Purok 6",
              "Purok 7"
            ],
            "lat": 13.3772762,
            "lng": 123.6819029
          },
          {
            "name": "Libod",
            "puroks": [
              "Purok 1",
              "Purok 2",
              "Purok 3",
              "Purok 4",
              "Purok 5",
              "Purok 6",
              "Purok 7"
            ],
            "lat": 13.3995814,
            "lng": 123.6916877
          },
          {
            "name": "Malolos",
            "puroks": [
              "Purok 1",
              "Purok 2",
              "Purok 3",
              "Purok 4",
              "Purok 5",
              "Purok 6",
              "Purok 7"
            ],
            "lat": 13.3829175,
            "lng": 123.6693209
          },
          {
            "name": "Matalipni",
            "puroks": [
              "Purok 1",
              "Purok 2",
              "Purok 3",
              "Purok 4",
              "Purok 5",
              "Purok 6",
              "Purok 7"
            ],
            "lat": 13.3935661,
            "lng": 123.6567371
          },
          {
            "name": "Ogob",
            "puroks": [
              "Purok 1",
              "Purok 2",
              "Purok 3",
              "Purok 4",
              "Purok 5",
              "Purok 6",
              "Purok 7"
            ],
            "lat": 13.3606087,
            "lng": 123.6595337
          },
          {
            "name": "Pawa",
            "puroks": [
              "Purok 1",
              "Purok 2",
              "Purok 3",
              "Purok 4",
              "Purok 5",
              "Purok 6",
              "Purok 7"
            ],
            "lat": 13.3933159,
            "lng": 123.7000739
          },
          {
            "name": "Payahan",
            "puroks": [
              "Purok 1",
              "Purok 2",
              "Purok 3",
              "Purok 4",
              "Purok 5",
              "Purok 6",
              "Purok 7"
            ],
            "lat": 13.399142,
            "lng": 123.7112544
          },
          {
            "name": "Poblacion",
            "puroks": [
              "Purok 1",
              "Purok 2",
              "Purok 3",
              "Purok 4",
              "Purok 5",
              "Purok 6",
              "Purok 7"
            ],
            "lat": 13.3952884,
            "lng": 123.7077606
          },
          {
            "name": "Quinarabasahan",
            "puroks": [
              "Purok 1",
              "Purok 2",
              "Purok 3",
              "Purok 4",
              "Purok 5",
              "Purok 6",
              "Purok 7"
            ],
            "lat": 13.3618844,
            "lng": 123.6007892
          },
          {
            "name": "Santa Elena",
            "puroks": [
              "Purok 1",
              "Purok 2",
              "Purok 3",
              "Purok 4",
              "Purok 5",
              "Purok 6",
              "Purok 7"
            ],
            "lat": 13.4242122,
            "lng": 123.6777091
          },
          {
            "name": "Soa",
            "puroks": [
              "Purok 1",
              "Purok 2",
              "Purok 3",
              "Purok 4",
              "Purok 5",
              "Purok 6",
              "Purok 7"
            ],
            "lat": 13.3451831,
            "lng": 123.6455502
          },
          {
            "name": "Sugcad",
            "puroks": [
              "Purok 1",
              "Purok 2",
              "Purok 3",
              "Purok 4",
              "Purok 5",
              "Purok 6",
              "Purok 7"
            ],
            "lat": 13.4065036,
            "lng": 123.6539405
          },
          {
            "name": "Tagoytoy",
            "puroks": [
              "Purok 1",
              "Purok 2",
              "Purok 3",
              "Purok 4",
              "Purok 5",
              "Purok 6",
              "Purok 7"
            ],
            "lat": 13.414838,
            "lng": 123.6651265
          },
          {
            "name": "Tanawan",
            "puroks": [
              "Purok 1",
              "Purok 2",
              "Purok 3",
              "Purok 4",
              "Purok 5",
              "Purok 6",
              "Purok 7"
            ],
            "lat": 13.4073095,
            "lng": 123.6819029
          },
          {
            "name": "Tuliw",
            "puroks": [
              "Purok 1",
              "Purok 2",
              "Purok 3",
              "Purok 4",
              "Purok 5",
              "Purok 6",
              "Purok 7"
            ],
            "lat": 13.3895709,
            "lng": 123.6916877
          }
        ]
      },
      {
        "name": "Santo Domingo",
        "barangays": [
          {
            "name": "Alimsog",
            "puroks": [
              "Purok 1",
              "Purok 2",
              "Purok 3",
              "Purok 4",
              "Purok 5",
              "Purok 6",
              "Purok 7"
            ],
            "lat": 13.2282891,
            "lng": 123.8508969
          },
          {
            "name": "Bagong San Roque",
            "puroks": [
              "Purok 1",
              "Purok 2",
              "Purok 3",
              "Purok 4",
              "Purok 5",
              "Purok 6",
              "Purok 7"
            ],
            "lat": 13.2532764,
            "lng": 123.7671365
          },
          {
            "name": "Buhatan",
            "puroks": [
              "Purok 1",
              "Purok 2",
              "Purok 3",
              "Purok 4",
              "Purok 5",
              "Purok 6",
              "Purok 7"
            ],
            "lat": 13.2355762,
            "lng": 123.8271725
          },
          {
            "name": "Calayucay",
            "puroks": [
              "Purok 1",
              "Purok 2",
              "Purok 3",
              "Purok 4",
              "Purok 5",
              "Purok 6",
              "Purok 7"
            ],
            "lat": 13.2464048,
            "lng": 123.7880837
          },
          {
            "name": "Del Rosario (Poblacion)",
            "puroks": [
              "Purok 1",
              "Purok 2",
              "Purok 3",
              "Purok 4",
              "Purok 5"
            ],
            "lat": 13.2343346,
            "lng": 123.7777399
          },
          {
            "name": "Fidel Surtida",
            "puroks": [
              "Purok 1",
              "Purok 2",
              "Purok 3",
              "Purok 4",
              "Purok 5",
              "Purok 6",
              "Purok 7"
            ],
            "lat": 13.244744,
            "lng": 123.7322141
          },
          {
            "name": "Lidong",
            "puroks": [
              "Purok 1",
              "Purok 2",
              "Purok 3",
              "Purok 4",
              "Purok 5",
              "Purok 6",
              "Purok 7"
            ],
            "lat": 13.2318385,
            "lng": 123.7350084
          },
          {
            "name": "Market Site (Poblacion)",
            "puroks": [
              "Purok 1",
              "Purok 2",
              "Purok 3",
              "Purok 4",
              "Purok 5"
            ],
            "lat": 13.2359913,
            "lng": 123.7765194
          },
          {
            "name": "Nagsiya (Poblacion)",
            "puroks": [
              "Purok 1",
              "Purok 2",
              "Purok 3",
              "Purok 4",
              "Purok 5"
            ],
            "lat": 13.2371989,
            "lng": 123.7770776
          },
          {
            "name": "Pandayan (Poblacion)",
            "puroks": [
              "Purok 1",
              "Purok 2",
              "Purok 3",
              "Purok 4",
              "Purok 5"
            ],
            "lat": 13.2331061,
            "lng": 123.7799916
          },
          {
            "name": "Salvacion",
            "puroks": [
              "Purok 1",
              "Purok 2",
              "Purok 3",
              "Purok 4",
              "Purok 5",
              "Purok 6",
              "Purok 7"
            ],
            "lat": 13.2430698,
            "lng": 123.8104222
          },
          {
            "name": "San Andres",
            "puroks": [
              "Purok 1",
              "Purok 2",
              "Purok 3",
              "Purok 4",
              "Purok 5",
              "Purok 6",
              "Purok 7"
            ],
            "lat": 13.2595181,
            "lng": 123.775516
          },
          {
            "name": "San Fernando",
            "puroks": [
              "Purok 1",
              "Purok 2",
              "Purok 3",
              "Purok 4",
              "Purok 5",
              "Purok 6",
              "Purok 7"
            ],
            "lat": 13.2636896,
            "lng": 123.7308169
          },
          {
            "name": "San Francisco (Poblacion)",
            "puroks": [
              "Purok 1",
              "Purok 2",
              "Purok 3",
              "Purok 4",
              "Purok 5"
            ],
            "lat": 13.2345346,
            "lng": 123.7764189
          },
          {
            "name": "San Isidro",
            "puroks": [
              "Purok 1",
              "Purok 2",
              "Purok 3",
              "Purok 4",
              "Purok 5",
              "Purok 6",
              "Purok 7"
            ],
            "lat": 13.2308013,
            "lng": 123.7671365
          },
          {
            "name": "San Juan (Poblacion)",
            "puroks": [
              "Purok 1",
              "Purok 2",
              "Purok 3",
              "Purok 4",
              "Purok 5"
            ],
            "lat": 13.2340496,
            "lng": 123.7773267
          },
          {
            "name": "San Pedro (Poblacion)",
            "puroks": [
              "Purok 1",
              "Purok 2",
              "Purok 3",
              "Purok 4",
              "Purok 5"
            ],
            "lat": 13.2349251,
            "lng": 123.7786845
          },
          {
            "name": "San Rafael (Poblacion)",
            "puroks": [
              "Purok 1",
              "Purok 2",
              "Purok 3",
              "Purok 4",
              "Purok 5"
            ],
            "lat": 13.2371989,
            "lng": 123.7770776
          },
          {
            "name": "San Roque",
            "puroks": [
              "Purok 1",
              "Purok 2",
              "Purok 3",
              "Purok 4",
              "Purok 5",
              "Purok 6",
              "Purok 7"
            ],
            "lat": 13.2466149,
            "lng": 123.778309
          },
          {
            "name": "San Vicente (Poblacion)",
            "puroks": [
              "Purok 1",
              "Purok 2",
              "Purok 3",
              "Purok 4",
              "Purok 5"
            ],
            "lat": 13.2334454,
            "lng": 123.7806968
          },
          {
            "name": "Santa Misericordia",
            "puroks": [
              "Purok 1",
              "Purok 2",
              "Purok 3",
              "Purok 4",
              "Purok 5",
              "Purok 6",
              "Purok 7"
            ],
            "lat": 13.2572339,
            "lng": 123.7489785
          },
          {
            "name": "Santo Domingo (Poblacion)",
            "puroks": [
              "Purok 1",
              "Purok 2",
              "Purok 3",
              "Purok 4",
              "Purok 5"
            ],
            "lat": 13.2329772,
            "lng": 123.7604184
          },
          {
            "name": "Santo Niño",
            "puroks": [
              "Purok 1",
              "Purok 2",
              "Purok 3",
              "Purok 4",
              "Purok 5",
              "Purok 6",
              "Purok 7"
            ],
            "lat": 13.2403732,
            "lng": 123.7699298
          }
        ]
      },
      {
        "name": "Tabaco City",
        "barangays": [
          {
            "name": "Agnas",
            "puroks": [
              "Purok 1",
              "Purok 2",
              "Purok 3",
              "Purok 4",
              "Purok 5",
              "Purok 6",
              "Purok 7"
            ],
            "lat": 13.3877849,
            "lng": 123.7866874
          },
          {
            "name": "Bacolod",
            "puroks": [
              "Purok 1",
              "Purok 2",
              "Purok 3",
              "Purok 4",
              "Purok 5",
              "Purok 6",
              "Purok 7"
            ],
            "lat": 13.3628963,
            "lng": 123.7339605
          },
          {
            "name": "Bangkilingan",
            "puroks": [
              "Purok 1",
              "Purok 2",
              "Purok 3",
              "Purok 4",
              "Purok 5",
              "Purok 6",
              "Purok 7"
            ],
            "lat": 13.360776,
            "lng": 123.7168441
          },
          {
            "name": "Bantayan",
            "puroks": [
              "Purok 1",
              "Purok 2",
              "Purok 3",
              "Purok 4",
              "Purok 5",
              "Purok 6",
              "Purok 7"
            ],
            "lat": 13.3324605,
            "lng": 123.6553388
          },
          {
            "name": "Baranghawon",
            "puroks": [
              "Purok 1",
              "Purok 2",
              "Purok 3",
              "Purok 4",
              "Purok 5",
              "Purok 6",
              "Purok 7"
            ],
            "lat": 13.3503525,
            "lng": 123.7196388
          },
          {
            "name": "Basagan",
            "puroks": [
              "Purok 1",
              "Purok 2",
              "Purok 3",
              "Purok 4",
              "Purok 5",
              "Purok 6",
              "Purok 7"
            ],
            "lat": 13.3339147,
            "lng": 123.6707189
          },
          {
            "name": "Basud",
            "puroks": [
              "Purok 1",
              "Purok 2",
              "Purok 3",
              "Purok 4",
              "Purok 5",
              "Purok 6",
              "Purok 7"
            ],
            "lat": 13.3560772,
            "lng": 123.7273239
          },
          {
            "name": "Bogñabong",
            "puroks": [
              "Purok 1",
              "Purok 2",
              "Purok 3",
              "Purok 4",
              "Purok 5",
              "Purok 6",
              "Purok 7"
            ],
            "lat": 13.340768,
            "lng": 123.7168441
          },
          {
            "name": "Bombon",
            "puroks": [
              "Purok 1",
              "Purok 2",
              "Purok 3",
              "Purok 4",
              "Purok 5",
              "Purok 6",
              "Purok 7"
            ],
            "lat": 13.3612888,
            "lng": 123.7259267
          },
          {
            "name": "Bonot",
            "puroks": [
              "Purok 1",
              "Purok 2",
              "Purok 3",
              "Purok 4",
              "Purok 5",
              "Purok 6",
              "Purok 7"
            ],
            "lat": 13.3155732,
            "lng": 123.6595337
          },
          {
            "name": "Buang",
            "puroks": [
              "Purok 1",
              "Purok 2",
              "Purok 3",
              "Purok 4",
              "Purok 5",
              "Purok 6",
              "Purok 7"
            ],
            "lat": 13.2801444,
            "lng": 123.679107
          },
          {
            "name": "Buhian",
            "puroks": [
              "Purok 1",
              "Purok 2",
              "Purok 3",
              "Purok 4",
              "Purok 5",
              "Purok 6",
              "Purok 7"
            ],
            "lat": 13.3270391,
            "lng": 123.6581354
          },
          {
            "name": "Cabagñan",
            "puroks": [
              "Purok 1",
              "Purok 2",
              "Purok 3",
              "Purok 4",
              "Purok 5",
              "Purok 6",
              "Purok 7"
            ],
            "lat": 13.3400321,
            "lng": 123.7259267
          },
          {
            "name": "Cobo",
            "puroks": [
              "Purok 1",
              "Purok 2",
              "Purok 3",
              "Purok 4",
              "Purok 5",
              "Purok 6",
              "Purok 7"
            ],
            "lat": 13.3510756,
            "lng": 123.7273239
          },
          {
            "name": "Comon",
            "puroks": [
              "Purok 1",
              "Purok 2",
              "Purok 3",
              "Purok 4",
              "Purok 5",
              "Purok 6",
              "Purok 7"
            ],
            "lat": 13.3005618,
            "lng": 123.6930855
          },
          {
            "name": "Cormidal",
            "puroks": [
              "Purok 1",
              "Purok 2",
              "Purok 3",
              "Purok 4",
              "Purok 5",
              "Purok 6",
              "Purok 7"
            ],
            "lat": 13.3612809,
            "lng": 123.7343098
          },
          {
            "name": "Divino Rostro (Poblacion)",
            "puroks": [
              "Purok 1",
              "Purok 2",
              "Purok 3",
              "Purok 4",
              "Purok 5"
            ],
            "lat": 13.3561783,
            "lng": 123.7308169
          },
          {
            "name": "Fatima",
            "puroks": [
              "Purok 1",
              "Purok 2",
              "Purok 3",
              "Purok 4",
              "Purok 5",
              "Purok 6",
              "Purok 7"
            ],
            "lat": 13.3503383,
            "lng": 123.7364055
          },
          {
            "name": "Guinobat",
            "puroks": [
              "Purok 1",
              "Purok 2",
              "Purok 3",
              "Purok 4",
              "Purok 5",
              "Purok 6",
              "Purok 7"
            ],
            "lat": 13.3516095,
            "lng": 123.7112544
          },
          {
            "name": "Hacienda",
            "puroks": [
              "Purok 1",
              "Purok 2",
              "Purok 3",
              "Purok 4",
              "Purok 5",
              "Purok 6",
              "Purok 7"
            ],
            "lat": 13.35836,
            "lng": 123.824381
          },
          {
            "name": "Magapo",
            "puroks": [
              "Purok 1",
              "Purok 2",
              "Purok 3",
              "Purok 4",
              "Purok 5",
              "Purok 6",
              "Purok 7"
            ],
            "lat": 13.3001474,
            "lng": 123.679107
          },
          {
            "name": "Mariroc",
            "puroks": [
              "Purok 1",
              "Purok 2",
              "Purok 3",
              "Purok 4",
              "Purok 5",
              "Purok 6",
              "Purok 7"
            ],
            "lat": 13.3261913,
            "lng": 123.6972786
          },
          {
            "name": "Matagbac",
            "puroks": [
              "Purok 1",
              "Purok 2",
              "Purok 3",
              "Purok 4",
              "Purok 5",
              "Purok 6",
              "Purok 7"
            ],
            "lat": 13.3595324,
            "lng": 123.7084594
          },
          {
            "name": "Oras",
            "puroks": [
              "Purok 1",
              "Purok 2",
              "Purok 3",
              "Purok 4",
              "Purok 5",
              "Purok 6",
              "Purok 7"
            ],
            "lat": 13.3147416,
            "lng": 123.6315647
          },
          {
            "name": "Oson",
            "puroks": [
              "Purok 1",
              "Purok 2",
              "Purok 3",
              "Purok 4",
              "Purok 5",
              "Purok 6",
              "Purok 7"
            ],
            "lat": 13.3172356,
            "lng": 123.6819029
          },
          {
            "name": "Panal",
            "puroks": [
              "Purok 1",
              "Purok 2",
              "Purok 3",
              "Purok 4",
              "Purok 5",
              "Purok 6",
              "Purok 7",
              "Purok 8",
              "Purok 9"
            ],
            "lat": 13.3569158,
            "lng": 123.7217348
          },
          {
            "name": "Pawa",
            "puroks": [
              "Purok 1",
              "Purok 2",
              "Purok 3",
              "Purok 4",
              "Purok 5",
              "Purok 6",
              "Purok 7"
            ],
            "lat": 13.3704625,
            "lng": 123.7231321
          },
          {
            "name": "Pinagbobong",
            "puroks": [
              "Purok 1",
              "Purok 2",
              "Purok 3",
              "Purok 4",
              "Purok 5",
              "Purok 6",
              "Purok 7"
            ],
            "lat": 13.3397376,
            "lng": 123.6986763
          },
          {
            "name": "Quinale Cabasan",
            "puroks": [
              "Purok 1",
              "Purok 2",
              "Purok 3",
              "Purok 4",
              "Purok 5",
              "Purok 6",
              "Purok 7"
            ],
            "lat": 13.3589898,
            "lng": 123.7329127
          },
          {
            "name": "Quinastillojan",
            "puroks": [
              "Purok 1",
              "Purok 2",
              "Purok 3",
              "Purok 4",
              "Purok 5",
              "Purok 6",
              "Purok 7"
            ],
            "lat": 13.3397543,
            "lng": 123.6651265
          },
          {
            "name": "Rawis",
            "puroks": [
              "Purok 1",
              "Purok 2",
              "Purok 3",
              "Purok 4",
              "Purok 5",
              "Purok 6",
              "Purok 7"
            ],
            "lat": 13.402505,
            "lng": 123.7678349
          },
          {
            "name": "Sagurong",
            "puroks": [
              "Purok 1",
              "Purok 2",
              "Purok 3",
              "Purok 4",
              "Purok 5",
              "Purok 6",
              "Purok 7"
            ],
            "lat": 13.3971681,
            "lng": 123.7824983
          },
          {
            "name": "Salvacion",
            "puroks": [
              "Purok 1",
              "Purok 2",
              "Purok 3",
              "Purok 4",
              "Purok 5",
              "Purok 6",
              "Purok 7"
            ],
            "lat": 13.3458577,
            "lng": 123.737104
          },
          {
            "name": "San Antonio",
            "puroks": [
              "Purok 1",
              "Purok 2",
              "Purok 3",
              "Purok 4",
              "Purok 5",
              "Purok 6",
              "Purok 7"
            ],
            "lat": 13.3464144,
            "lng": 123.6874944
          },
          {
            "name": "San Carlos",
            "puroks": [
              "Purok 1",
              "Purok 2",
              "Purok 3",
              "Purok 4",
              "Purok 5",
              "Purok 6",
              "Purok 7"
            ],
            "lat": 13.3774464,
            "lng": 123.7224335
          },
          {
            "name": "San Isidro",
            "puroks": [
              "Purok 1",
              "Purok 2",
              "Purok 3",
              "Purok 4",
              "Purok 5",
              "Purok 6",
              "Purok 7"
            ],
            "lat": 13.3291175,
            "lng": 123.6777091
          },
          {
            "name": "San Juan",
            "puroks": [
              "Purok 1",
              "Purok 2",
              "Purok 3",
              "Purok 4",
              "Purok 5",
              "Purok 6",
              "Purok 7"
            ],
            "lat": 13.3582131,
            "lng": 123.7276732
          },
          {
            "name": "San Lorenzo",
            "puroks": [
              "Purok 1",
              "Purok 2",
              "Purok 3",
              "Purok 4",
              "Purok 5",
              "Purok 6",
              "Purok 7"
            ],
            "lat": 13.3407556,
            "lng": 123.7336113
          },
          {
            "name": "San Ramon",
            "puroks": [
              "Purok 1",
              "Purok 2",
              "Purok 3",
              "Purok 4",
              "Purok 5",
              "Purok 6",
              "Purok 7"
            ],
            "lat": 13.3448238,
            "lng": 123.7273239
          },
          {
            "name": "San Roque (Poblacion)",
            "puroks": [
              "Purok 1",
              "Purok 2",
              "Purok 3",
              "Purok 4",
              "Purok 5",
              "Purok 6",
              "Purok 7"
            ],
            "lat": 13.3551842,
            "lng": 123.7353577
          },
          {
            "name": "San Vicente",
            "puroks": [
              "Purok 1",
              "Purok 2",
              "Purok 3",
              "Purok 4",
              "Purok 5",
              "Purok 6",
              "Purok 7"
            ],
            "lat": 13.3597486,
            "lng": 123.6986763
          },
          {
            "name": "Santo Cristo",
            "puroks": [
              "Purok 1",
              "Purok 2",
              "Purok 3",
              "Purok 4",
              "Purok 5",
              "Purok 6",
              "Purok 7"
            ],
            "lat": 13.3575296,
            "lng": 123.7343098
          },
          {
            "name": "Sua-Igot",
            "puroks": [
              "Purok 1",
              "Purok 2",
              "Purok 3",
              "Purok 4",
              "Purok 5",
              "Purok 6",
              "Purok 7"
            ],
            "lat": 13.3360142,
            "lng": 123.6063855
          },
          {
            "name": "Tabiguian",
            "puroks": [
              "Purok 1",
              "Purok 2",
              "Purok 3",
              "Purok 4",
              "Purok 5",
              "Purok 6",
              "Purok 7"
            ],
            "lat": 13.3251654,
            "lng": 123.6455502
          },
          {
            "name": "Tagas",
            "puroks": [
              "Purok 1",
              "Purok 2",
              "Purok 3",
              "Purok 4",
              "Purok 5",
              "Purok 6",
              "Purok 7"
            ],
            "lat": 13.3516971,
            "lng": 123.7315155
          },
          {
            "name": "Tayhi (Poblacion)",
            "puroks": [
              "Purok 1",
              "Purok 2",
              "Purok 3",
              "Purok 4",
              "Purok 5",
              "Purok 6",
              "Purok 7",
              "Purok 8",
              "Purok 9"
            ],
            "lat": 13.3650322,
            "lng": 123.7343098
          },
          {
            "name": "Visita",
            "puroks": [
              "Purok 1",
              "Purok 2",
              "Purok 3",
              "Purok 4",
              "Purok 5",
              "Purok 6",
              "Purok 7"
            ],
            "lat": 13.391969,
            "lng": 123.775516
          }
        ]
      },
      {
        "name": "Tiwi",
        "barangays": [
          {
            "name": "Bagumbayan",
            "puroks": [
              "Purok 1",
              "Purok 2",
              "Purok 3",
              "Purok 4",
              "Purok 5",
              "Purok 6",
              "Purok 7"
            ],
            "lat": 13.4498955,
            "lng": 123.6651265
          },
          {
            "name": "Bariis",
            "puroks": [
              "Purok 1",
              "Purok 2",
              "Purok 3",
              "Purok 4",
              "Purok 5",
              "Purok 6",
              "Purok 7"
            ],
            "lat": 13.4727336,
            "lng": 123.6049864
          },
          {
            "name": "Baybay",
            "puroks": [
              "Purok 1",
              "Purok 2",
              "Purok 3",
              "Purok 4",
              "Purok 5",
              "Purok 6",
              "Purok 7"
            ],
            "lat": 13.458946,
            "lng": 123.6839997
          },
          {
            "name": "Belen",
            "puroks": [
              "Purok 1",
              "Purok 2",
              "Purok 3",
              "Purok 4",
              "Purok 5",
              "Purok 6",
              "Purok 7"
            ],
            "lat": 13.4440442,
            "lng": 123.6707189
          },
          {
            "name": "Biyong",
            "puroks": [
              "Purok 1",
              "Purok 2",
              "Purok 3",
              "Purok 4",
              "Purok 5",
              "Purok 6",
              "Purok 7"
            ],
            "lat": 13.4449288,
            "lng": 123.6315647
          },
          {
            "name": "Bolo",
            "puroks": [
              "Purok 1",
              "Purok 2",
              "Purok 3",
              "Purok 4",
              "Purok 5",
              "Purok 6",
              "Purok 7"
            ],
            "lat": 13.4667826,
            "lng": 123.6777091
          },
          {
            "name": "Cale",
            "puroks": [
              "Purok 1",
              "Purok 2",
              "Purok 3",
              "Purok 4",
              "Purok 5",
              "Purok 6",
              "Purok 7"
            ],
            "lat": 13.455792,
            "lng": 123.6259699
          },
          {
            "name": "Cararayan",
            "puroks": [
              "Purok 1",
              "Purok 2",
              "Purok 3",
              "Purok 4",
              "Purok 5",
              "Purok 6",
              "Purok 7"
            ],
            "lat": 13.4659653,
            "lng": 123.6665246
          },
          {
            "name": "Coro-coro",
            "puroks": [
              "Purok 1",
              "Purok 2",
              "Purok 3",
              "Purok 4",
              "Purok 5",
              "Purok 6",
              "Purok 7"
            ],
            "lat": 13.4467473,
            "lng": 123.6777091
          },
          {
            "name": "Dap-dap",
            "puroks": [
              "Purok 1",
              "Purok 2",
              "Purok 3",
              "Purok 4",
              "Purok 5",
              "Purok 6",
              "Purok 7"
            ],
            "lat": 13.5034847,
            "lng": 123.5756018
          },
          {
            "name": "Gajo",
            "puroks": [
              "Purok 1",
              "Purok 2",
              "Purok 3",
              "Purok 4",
              "Purok 5",
              "Purok 6",
              "Purok 7"
            ],
            "lat": 13.4509127,
            "lng": 123.6833008
          },
          {
            "name": "Joroan",
            "puroks": [
              "Purok 1",
              "Purok 2",
              "Purok 3",
              "Purok 4",
              "Purok 5",
              "Purok 6",
              "Purok 7"
            ],
            "lat": 13.4717113,
            "lng": 123.586797
          },
          {
            "name": "Libjo",
            "puroks": [
              "Purok 1",
              "Purok 2",
              "Purok 3",
              "Purok 4",
              "Purok 5",
              "Purok 6",
              "Purok 7"
            ],
            "lat": 13.4593808,
            "lng": 123.672816
          },
          {
            "name": "Libtong",
            "puroks": [
              "Purok 1",
              "Purok 2",
              "Purok 3",
              "Purok 4",
              "Purok 5",
              "Purok 6",
              "Purok 7"
            ],
            "lat": 13.4525988,
            "lng": 123.672117
          },
          {
            "name": "Matalibong",
            "puroks": [
              "Purok 1",
              "Purok 2",
              "Purok 3",
              "Purok 4",
              "Purok 5",
              "Purok 6",
              "Purok 7"
            ],
            "lat": 13.4768804,
            "lng": 123.6273686
          },
          {
            "name": "Maynonong",
            "puroks": [
              "Purok 1",
              "Purok 2",
              "Purok 3",
              "Purok 4",
              "Purok 5",
              "Purok 6",
              "Purok 7"
            ],
            "lat": 13.481739,
            "lng": 123.586797
          },
          {
            "name": "Mayong",
            "puroks": [
              "Purok 1",
              "Purok 2",
              "Purok 3",
              "Purok 4",
              "Purok 5",
              "Purok 6",
              "Purok 7"
            ],
            "lat": 13.5143606,
            "lng": 123.5700036
          },
          {
            "name": "Misibis",
            "puroks": [
              "Purok 1",
              "Purok 2",
              "Purok 3",
              "Purok 4",
              "Purok 5",
              "Purok 6",
              "Purok 7"
            ],
            "lat": 13.4926108,
            "lng": 123.5811995
          },
          {
            "name": "Naga",
            "puroks": [
              "Purok 1",
              "Purok 2",
              "Purok 3",
              "Purok 4",
              "Purok 5",
              "Purok 6",
              "Purok 7"
            ],
            "lat": 13.4365091,
            "lng": 123.6874944
          },
          {
            "name": "Nagas",
            "puroks": [
              "Purok 1",
              "Purok 2",
              "Purok 3",
              "Purok 4",
              "Purok 5",
              "Purok 6",
              "Purok 7"
            ],
            "lat": 13.4365091,
            "lng": 123.6874944
          },
          {
            "name": "Oyama",
            "puroks": [
              "Purok 1",
              "Purok 2",
              "Purok 3",
              "Purok 4",
              "Purok 5",
              "Purok 6",
              "Purok 7"
            ],
            "lat": 13.4522765,
            "lng": 123.678408
          },
          {
            "name": "Putsan",
            "puroks": [
              "Purok 1",
              "Purok 2",
              "Purok 3",
              "Purok 4",
              "Purok 5",
              "Purok 6",
              "Purok 7"
            ],
            "lat": 13.4751411,
            "lng": 123.672117
          },
          {
            "name": "San Bernardo",
            "puroks": [
              "Purok 1",
              "Purok 2",
              "Purok 3",
              "Purok 4",
              "Purok 5",
              "Purok 6",
              "Purok 7"
            ],
            "lat": 13.415711,
            "lng": 123.6259699
          },
          {
            "name": "Sogod",
            "puroks": [
              "Purok 1",
              "Purok 2",
              "Purok 3",
              "Purok 4",
              "Purok 5",
              "Purok 6",
              "Purok 7"
            ],
            "lat": 13.4789394,
            "lng": 123.6469486
          },
          {
            "name": "Tigbi (Poblacion)",
            "puroks": [
              "Purok 1",
              "Purok 2",
              "Purok 3",
              "Purok 4",
              "Purok 5",
              "Purok 6",
              "Purok 7"
            ],
            "lat": 13.4588472,
            "lng": 123.680505
          }
        ]
      }
    ]
  },
  {
    "district": "Second District (Central Albay)",
    "municipalities": [
      {
        "name": "Camalig",
        "barangays": [
          {
            "name": "Anoling",
            "puroks": [
              "Purok 1",
              "Purok 2",
              "Purok 3",
              "Purok 4",
              "Purok 5",
              "Purok 6",
              "Purok 7"
            ],
            "lat": 13.2089094,
            "lng": 123.6707189
          },
          {
            "name": "Baligang",
            "puroks": [
              "Purok 1",
              "Purok 2",
              "Purok 3",
              "Purok 4",
              "Purok 5",
              "Purok 6",
              "Purok 7"
            ],
            "lat": 13.1530863,
            "lng": 123.6427533
          },
          {
            "name": "Bantonan",
            "puroks": [
              "Purok 1",
              "Purok 2",
              "Purok 3",
              "Purok 4",
              "Purok 5",
              "Purok 6",
              "Purok 7"
            ],
            "lat": 13.1405721,
            "lng": 123.6259699
          },
          {
            "name": "Barangay 1 (Poblacion)",
            "puroks": [
              "Purok 1",
              "Purok 2",
              "Purok 3",
              "Purok 4",
              "Purok 5"
            ],
            "lat": 13.1851094,
            "lng": 123.6563876
          },
          {
            "name": "Barangay 2 (Poblacion)",
            "puroks": [
              "Purok 1",
              "Purok 2",
              "Purok 3",
              "Purok 4",
              "Purok 5"
            ],
            "lat": 13.1834424,
            "lng": 123.6549893
          },
          {
            "name": "Barangay 3 (Poblacion)",
            "puroks": [
              "Purok 1",
              "Purok 2",
              "Purok 3",
              "Purok 4",
              "Purok 5"
            ],
            "lat": 13.1815373,
            "lng": 123.6543655
          },
          {
            "name": "Barangay 4 (Poblacion)",
            "puroks": [
              "Purok 1",
              "Purok 2",
              "Purok 3",
              "Purok 4",
              "Purok 5"
            ],
            "lat": 13.1790739,
            "lng": 123.6534412
          },
          {
            "name": "Barangay 5 (Poblacion)",
            "puroks": [
              "Purok 1",
              "Purok 2",
              "Purok 3",
              "Purok 4",
              "Purok 5"
            ],
            "lat": 13.1797737,
            "lng": 123.6555136
          },
          {
            "name": "Barangay 6 (Poblacion)",
            "puroks": [
              "Purok 1",
              "Purok 2",
              "Purok 3",
              "Purok 4",
              "Purok 5"
            ],
            "lat": 13.179429,
            "lng": 123.6547379
          },
          {
            "name": "Barangay 7 (Poblacion)",
            "puroks": [
              "Purok 1",
              "Purok 2",
              "Purok 3",
              "Purok 4",
              "Purok 5"
            ],
            "lat": 13.1818832,
            "lng": 123.6570867
          },
          {
            "name": "Bariw",
            "puroks": [
              "Purok 1",
              "Purok 2",
              "Purok 3",
              "Purok 4",
              "Purok 5",
              "Purok 6",
              "Purok 7"
            ],
            "lat": 13.1663794,
            "lng": 123.6203747
          },
          {
            "name": "Binanderahan",
            "puroks": [
              "Purok 1",
              "Purok 2",
              "Purok 3",
              "Purok 4",
              "Purok 5",
              "Purok 6",
              "Purok 7"
            ],
            "lat": 13.1029819,
            "lng": 123.6023661
          },
          {
            "name": "Binitayan",
            "puroks": [
              "Purok 1",
              "Purok 2",
              "Purok 3",
              "Purok 4",
              "Purok 5",
              "Purok 6",
              "Purok 7"
            ],
            "lat": 13.1354339,
            "lng": 123.6693209
          },
          {
            "name": "Bongabong",
            "puroks": [
              "Purok 1",
              "Purok 2",
              "Purok 3",
              "Purok 4",
              "Purok 5",
              "Purok 6",
              "Purok 7"
            ],
            "lat": 13.1331056,
            "lng": 123.6427533
          },
          {
            "name": "Cabagñan",
            "puroks": [
              "Purok 1",
              "Purok 2",
              "Purok 3",
              "Purok 4",
              "Purok 5",
              "Purok 6",
              "Purok 7"
            ],
            "lat": 13.1924629,
            "lng": 123.672117
          },
          {
            "name": "Cabraran Pequeño",
            "puroks": [
              "Purok 1",
              "Purok 2",
              "Purok 3",
              "Purok 4",
              "Purok 5",
              "Purok 6",
              "Purok 7"
            ],
            "lat": 13.0947295,
            "lng": 123.5979909
          },
          {
            "name": "Caguiba",
            "puroks": [
              "Purok 1",
              "Purok 2",
              "Purok 3",
              "Purok 4",
              "Purok 5",
              "Purok 6",
              "Purok 7"
            ],
            "lat": 13.1101589,
            "lng": 123.6119814
          },
          {
            "name": "Calabidongan",
            "puroks": [
              "Purok 1",
              "Purok 2",
              "Purok 3",
              "Purok 4",
              "Purok 5",
              "Purok 6",
              "Purok 7"
            ],
            "lat": 13.1179025,
            "lng": 123.6357605
          },
          {
            "name": "Comun",
            "puroks": [
              "Purok 1",
              "Purok 2",
              "Purok 3",
              "Purok 4",
              "Purok 5",
              "Purok 6",
              "Purok 7"
            ],
            "lat": 13.1320885,
            "lng": 123.6581354
          },
          {
            "name": "Cotmon",
            "puroks": [
              "Purok 1",
              "Purok 2",
              "Purok 3",
              "Purok 4",
              "Purok 5",
              "Purok 6",
              "Purok 7"
            ],
            "lat": 13.1198235,
            "lng": 123.6651265
          },
          {
            "name": "Del Rosario",
            "puroks": [
              "Purok 1",
              "Purok 2",
              "Purok 3",
              "Purok 4",
              "Purok 5",
              "Purok 6",
              "Purok 7"
            ],
            "lat": 13.1048455,
            "lng": 123.6651265
          },
          {
            "name": "Gapo",
            "puroks": [
              "Purok 1",
              "Purok 2",
              "Purok 3",
              "Purok 4",
              "Purok 5",
              "Purok 6",
              "Purok 7"
            ],
            "lat": 13.1812135,
            "lng": 123.6637283
          },
          {
            "name": "Gotob",
            "puroks": [
              "Purok 1",
              "Purok 2",
              "Purok 3",
              "Purok 4",
              "Purok 5",
              "Purok 6",
              "Purok 7"
            ],
            "lat": 13.1553891,
            "lng": 123.6525422
          },
          {
            "name": "Ilawod",
            "puroks": [
              "Purok 1",
              "Purok 2",
              "Purok 3",
              "Purok 4",
              "Purok 5",
              "Purok 6",
              "Purok 7"
            ],
            "lat": 13.1757857,
            "lng": 123.6497455
          },
          {
            "name": "Iluluan",
            "puroks": [
              "Purok 1",
              "Purok 2",
              "Purok 3",
              "Purok 4",
              "Purok 5",
              "Purok 6",
              "Purok 7"
            ],
            "lat": 13.125525,
            "lng": 123.5923941
          },
          {
            "name": "Libod",
            "puroks": [
              "Purok 1",
              "Purok 2",
              "Purok 3",
              "Purok 4",
              "Purok 5",
              "Purok 6",
              "Purok 7"
            ],
            "lat": 13.1797203,
            "lng": 123.6315647
          },
          {
            "name": "Ligban",
            "puroks": [
              "Purok 1",
              "Purok 2",
              "Purok 3",
              "Purok 4",
              "Purok 5",
              "Purok 6",
              "Purok 7"
            ],
            "lat": 13.1678783,
            "lng": 123.6525422
          },
          {
            "name": "Mabunga",
            "puroks": [
              "Purok 1",
              "Purok 2",
              "Purok 3",
              "Purok 4",
              "Purok 5",
              "Purok 6",
              "Purok 7"
            ],
            "lat": 13.0748272,
            "lng": 123.6315647
          },
          {
            "name": "Magogon",
            "puroks": [
              "Purok 1",
              "Purok 2",
              "Purok 3",
              "Purok 4",
              "Purok 5",
              "Purok 6",
              "Purok 7"
            ],
            "lat": 13.0640947,
            "lng": 123.6707189
          },
          {
            "name": "Manawan",
            "puroks": [
              "Purok 1",
              "Purok 2",
              "Purok 3",
              "Purok 4",
              "Purok 5",
              "Purok 6",
              "Purok 7"
            ],
            "lat": 13.1071825,
            "lng": 123.5811995
          },
          {
            "name": "Maninila",
            "puroks": [
              "Purok 1",
              "Purok 2",
              "Purok 3",
              "Purok 4",
              "Purok 5",
              "Purok 6",
              "Purok 7"
            ],
            "lat": 13.1014977,
            "lng": 123.6539405
          },
          {
            "name": "Mina",
            "puroks": [
              "Purok 1",
              "Purok 2",
              "Purok 3",
              "Purok 4",
              "Purok 5",
              "Purok 6",
              "Purok 7"
            ],
            "lat": 13.1606015,
            "lng": 123.6595337
          },
          {
            "name": "Miti",
            "puroks": [
              "Purok 1",
              "Purok 2",
              "Purok 3",
              "Purok 4",
              "Purok 5",
              "Purok 6",
              "Purok 7"
            ],
            "lat": 13.1380465,
            "lng": 123.6091835
          },
          {
            "name": "Palanog",
            "puroks": [
              "Purok 1",
              "Purok 2",
              "Purok 3",
              "Purok 4",
              "Purok 5",
              "Purok 6",
              "Purok 7"
            ],
            "lat": 13.1522127,
            "lng": 123.6147793
          },
          {
            "name": "Panoypoy",
            "puroks": [
              "Purok 1",
              "Purok 2",
              "Purok 3",
              "Purok 4",
              "Purok 5",
              "Purok 6",
              "Purok 7"
            ],
            "lat": 13.0736317,
            "lng": 123.6567371
          },
          {
            "name": "Pariaan",
            "puroks": [
              "Purok 1",
              "Purok 2",
              "Purok 3",
              "Purok 4",
              "Purok 5",
              "Purok 6",
              "Purok 7"
            ],
            "lat": 13.1147107,
            "lng": 123.5979909
          },
          {
            "name": "Quinartilan",
            "puroks": [
              "Purok 1",
              "Purok 2",
              "Purok 3",
              "Purok 4",
              "Purok 5",
              "Purok 6",
              "Purok 7"
            ],
            "lat": 13.0988309,
            "lng": 123.5700036
          },
          {
            "name": "Quirangay",
            "puroks": [
              "Purok 1",
              "Purok 2",
              "Purok 3",
              "Purok 4",
              "Purok 5",
              "Purok 6",
              "Purok 7"
            ],
            "lat": 13.2197335,
            "lng": 123.6651265
          },
          {
            "name": "Quitinday",
            "puroks": [
              "Purok 1",
              "Purok 2",
              "Purok 3",
              "Purok 4",
              "Purok 5",
              "Purok 6",
              "Purok 7"
            ],
            "lat": 13.0972618,
            "lng": 123.6147793
          },
          {
            "name": "Salugan",
            "puroks": [
              "Purok 1",
              "Purok 2",
              "Purok 3",
              "Purok 4",
              "Purok 5",
              "Purok 6",
              "Purok 7"
            ],
            "lat": 13.1882942,
            "lng": 123.6665246
          },
          {
            "name": "Solong",
            "puroks": [
              "Purok 1",
              "Purok 2",
              "Purok 3",
              "Purok 4",
              "Purok 5",
              "Purok 6",
              "Purok 7"
            ],
            "lat": 13.1187539,
            "lng": 123.6469486
          },
          {
            "name": "Sua",
            "puroks": [
              "Purok 1",
              "Purok 2",
              "Purok 3",
              "Purok 4",
              "Purok 5",
              "Purok 6",
              "Purok 7"
            ],
            "lat": 13.212852,
            "lng": 123.6525422
          },
          {
            "name": "Sumlang",
            "puroks": [
              "Purok 1",
              "Purok 2",
              "Purok 3",
              "Purok 4",
              "Purok 5",
              "Purok 6",
              "Purok 7"
            ],
            "lat": 13.178302,
            "lng": 123.6665246
          },
          {
            "name": "Tagaytay",
            "puroks": [
              "Purok 1",
              "Purok 2",
              "Purok 3",
              "Purok 4",
              "Purok 5",
              "Purok 6",
              "Purok 7"
            ],
            "lat": 13.1639036,
            "lng": 123.6371591
          },
          {
            "name": "Tagoytoy",
            "puroks": [
              "Purok 1",
              "Purok 2",
              "Purok 3",
              "Purok 4",
              "Purok 5",
              "Purok 6",
              "Purok 7"
            ],
            "lat": 13.1487439,
            "lng": 123.6637283
          },
          {
            "name": "Taladong",
            "puroks": [
              "Purok 1",
              "Purok 2",
              "Purok 3",
              "Purok 4",
              "Purok 5",
              "Purok 6",
              "Purok 7"
            ],
            "lat": 13.1406222,
            "lng": 123.6595337
          },
          {
            "name": "Taloto",
            "puroks": [
              "Purok 1",
              "Purok 2",
              "Purok 3",
              "Purok 4",
              "Purok 5",
              "Purok 6",
              "Purok 7"
            ],
            "lat": 13.0831709,
            "lng": 123.6427533
          },
          {
            "name": "Taplacon",
            "puroks": [
              "Purok 1",
              "Purok 2",
              "Purok 3",
              "Purok 4",
              "Purok 5",
              "Purok 6",
              "Purok 7"
            ],
            "lat": 13.0989703,
            "lng": 123.6371591
          },
          {
            "name": "Tinago",
            "puroks": [
              "Purok 1",
              "Purok 2",
              "Purok 3",
              "Purok 4",
              "Purok 5",
              "Purok 6",
              "Purok 7"
            ],
            "lat": 13.1755885,
            "lng": 123.6595337
          },
          {
            "name": "Tumpa",
            "puroks": [
              "Purok 1",
              "Purok 2",
              "Purok 3",
              "Purok 4",
              "Purok 5",
              "Purok 6",
              "Purok 7"
            ],
            "lat": 13.218051,
            "lng": 123.6427533
          }
        ]
      },
      {
        "name": "Daraga",
        "barangays": [
          {
            "name": "Alcala",
            "puroks": [
              "Purok 1",
              "Purok 2",
              "Purok 3",
              "Purok 4",
              "Purok 5",
              "Purok 6",
              "Purok 7"
            ],
            "lat": 13.1781336,
            "lng": 123.7098569
          },
          {
            "name": "Alobo",
            "puroks": [
              "Purok 1",
              "Purok 2",
              "Purok 3",
              "Purok 4",
              "Purok 5"
            ],
            "lat": 13.1181765,
            "lng": 123.6763111
          },
          {
            "name": "Anislag",
            "puroks": [
              "Purok 1",
              "Purok 2",
              "Purok 3",
              "Purok 4",
              "Purok 5",
              "Purok 6",
              "Purok 7",
              "Purok 8",
              "Purok 9"
            ],
            "lat": 13.0770428,
            "lng": 123.7014716
          },
          {
            "name": "Bagumbayan",
            "puroks": [
              "Purok 1",
              "Purok 2",
              "Purok 3",
              "Purok 4",
              "Purok 5"
            ],
            "lat": 13.140902,
            "lng": 123.7168441
          },
          {
            "name": "Balinad",
            "puroks": [
              "Purok 1",
              "Purok 2",
              "Purok 3",
              "Purok 4",
              "Purok 5"
            ],
            "lat": 13.1408828,
            "lng": 123.7000739
          },
          {
            "name": "Bascaran",
            "puroks": [
              "Purok 1",
              "Purok 2",
              "Purok 3",
              "Purok 4",
              "Purok 5",
              "Purok 6",
              "Purok 7"
            ],
            "lat": 13.1090667,
            "lng": 123.7042668
          },
          {
            "name": "Bañadero",
            "puroks": [
              "Purok 1",
              "Purok 2",
              "Purok 3",
              "Purok 4",
              "Purok 5",
              "Purok 6"
            ],
            "lat": 13.1739673,
            "lng": 123.7042668
          },
          {
            "name": "Bañag",
            "puroks": [
              "Purok 1",
              "Purok 2",
              "Purok 3",
              "Purok 4",
              "Purok 5",
              "Purok 6",
              "Purok 7"
            ],
            "lat": 13.156705,
            "lng": 123.7112544
          },
          {
            "name": "Bigao",
            "puroks": [
              "Purok 1",
              "Purok 2",
              "Purok 3",
              "Purok 4",
              "Purok 5"
            ],
            "lat": 13.0387751,
            "lng": 123.69029
          },
          {
            "name": "Binitayan",
            "puroks": [
              "Purok 1",
              "Purok 2",
              "Purok 3",
              "Purok 4",
              "Purok 5",
              "Purok 6",
              "Purok 7",
              "Purok 8"
            ],
            "lat": 13.1566058,
            "lng": 123.7161454
          },
          {
            "name": "Bongalon",
            "puroks": [
              "Purok 1",
              "Purok 2",
              "Purok 3",
              "Purok 4",
              "Purok 5"
            ],
            "lat": 13.1548197,
            "lng": 123.6986763
          },
          {
            "name": "Budiao",
            "puroks": [
              "Purok 1",
              "Purok 2",
              "Purok 3",
              "Purok 4",
              "Purok 5"
            ],
            "lat": 13.1820724,
            "lng": 123.6916877
          },
          {
            "name": "Burgos",
            "puroks": [
              "Purok 1",
              "Purok 2",
              "Purok 3",
              "Purok 4",
              "Purok 5"
            ],
            "lat": 13.1065459,
            "lng": 123.6874944
          },
          {
            "name": "Busay",
            "puroks": [
              "Purok 1",
              "Purok 2",
              "Purok 3",
              "Purok 4",
              "Purok 5",
              "Purok 6",
              "Purok 7"
            ],
            "lat": 13.1687589,
            "lng": 123.6972786
          },
          {
            "name": "Canarom",
            "puroks": [
              "Purok 1",
              "Purok 2",
              "Purok 3",
              "Purok 4",
              "Purok 5"
            ],
            "lat": 13.0507645,
            "lng": 123.6595337
          },
          {
            "name": "Cullat",
            "puroks": [
              "Purok 1",
              "Purok 2",
              "Purok 3",
              "Purok 4",
              "Purok 5"
            ],
            "lat": 13.1579449,
            "lng": 123.7028692
          },
          {
            "name": "Dela Paz",
            "puroks": [
              "Purok 1",
              "Purok 2",
              "Purok 3",
              "Purok 4",
              "Purok 5"
            ],
            "lat": 13.1367156,
            "lng": 123.6944832
          },
          {
            "name": "Dinoronan",
            "puroks": [
              "Purok 1",
              "Purok 2",
              "Purok 3",
              "Purok 4",
              "Purok 5"
            ],
            "lat": 13.1333943,
            "lng": 123.7000739
          },
          {
            "name": "Gabawan",
            "puroks": [
              "Purok 1",
              "Purok 2",
              "Purok 3",
              "Purok 4",
              "Purok 5",
              "Purok 6",
              "Purok 7"
            ],
            "lat": 13.1242571,
            "lng": 123.7112544
          },
          {
            "name": "Gapo",
            "puroks": [
              "Purok 1",
              "Purok 2",
              "Purok 3",
              "Purok 4",
              "Purok 5"
            ],
            "lat": 13.1215211,
            "lng": 123.6874944
          },
          {
            "name": "Ibaugan",
            "puroks": [
              "Purok 1",
              "Purok 2",
              "Purok 3",
              "Purok 4",
              "Purok 5"
            ],
            "lat": 13.0240992,
            "lng": 123.6371591
          },
          {
            "name": "Ilawod Area (Poblacion)",
            "puroks": [
              "Purok 1",
              "Purok 2",
              "Purok 3",
              "Purok 4",
              "Purok 5",
              "Purok 6"
            ],
            "lat": 13.1464951,
            "lng": 123.7142205
          },
          {
            "name": "Inarado",
            "puroks": [
              "Purok 1",
              "Purok 2",
              "Purok 3",
              "Purok 4",
              "Purok 5"
            ],
            "lat": 13.1381483,
            "lng": 123.6763111
          },
          {
            "name": "Kidaco",
            "puroks": [
              "Purok 1",
              "Purok 2",
              "Purok 3",
              "Purok 4",
              "Purok 5"
            ],
            "lat": 13.1504553,
            "lng": 123.7028692
          },
          {
            "name": "Kilicao",
            "puroks": [
              "Purok 1",
              "Purok 2",
              "Purok 3",
              "Purok 4",
              "Purok 5",
              "Purok 6",
              "Purok 7"
            ],
            "lat": 13.1683604,
            "lng": 123.7168441
          },
          {
            "name": "Kimantong",
            "puroks": [
              "Purok 1",
              "Purok 2",
              "Purok 3",
              "Purok 4",
              "Purok 5",
              "Purok 6",
              "Purok 7"
            ],
            "lat": 13.1439095,
            "lng": 123.7091582
          },
          {
            "name": "Kinawitan",
            "puroks": [
              "Purok 1",
              "Purok 2",
              "Purok 3",
              "Purok 4",
              "Purok 5"
            ],
            "lat": 13.0875947,
            "lng": 123.672117
          },
          {
            "name": "Kiwalo",
            "puroks": [
              "Purok 1",
              "Purok 2",
              "Purok 3",
              "Purok 4",
              "Purok 5",
              "Purok 6",
              "Purok 7"
            ],
            "lat": 13.1315168,
            "lng": 123.7160892
          },
          {
            "name": "Lacag",
            "puroks": [
              "Purok 1",
              "Purok 2",
              "Purok 3",
              "Purok 4",
              "Purok 5"
            ],
            "lat": 13.1572981,
            "lng": 123.6819029
          },
          {
            "name": "Mabini",
            "puroks": [
              "Purok 1",
              "Purok 2",
              "Purok 3",
              "Purok 4",
              "Purok 5"
            ],
            "lat": 13.1032002,
            "lng": 123.6763111
          },
          {
            "name": "Malabog",
            "puroks": [
              "Purok 1",
              "Purok 2",
              "Purok 3",
              "Purok 4",
              "Purok 5",
              "Purok 6",
              "Purok 7",
              "Purok 8",
              "Purok 9"
            ],
            "lat": 13.1672868,
            "lng": 123.6819029
          },
          {
            "name": "Malobago",
            "puroks": [
              "Purok 1",
              "Purok 2",
              "Purok 3",
              "Purok 4",
              "Purok 5"
            ],
            "lat": 13.1666911,
            "lng": 123.7112544
          },
          {
            "name": "Maopi",
            "puroks": [
              "Purok 1",
              "Purok 2",
              "Purok 3",
              "Purok 4",
              "Purok 5"
            ],
            "lat": 13.081592,
            "lng": 123.6874944
          },
          {
            "name": "Market Area (Near LCC/Poblacion)",
            "puroks": [
              "Purok 1",
              "Purok 2",
              "Purok 3",
              "Purok 4",
              "Purok 5"
            ],
            "lat": 13.1908763,
            "lng": 123.6004394
          },
          {
            "name": "Maroroy",
            "puroks": [
              "Purok 1",
              "Purok 2",
              "Purok 3",
              "Purok 4",
              "Purok 5",
              "Purok 6",
              "Purok 7"
            ],
            "lat": 13.1509935,
            "lng": 123.7203375
          },
          {
            "name": "Matnog",
            "puroks": [
              "Purok 1",
              "Purok 2",
              "Purok 3",
              "Purok 4",
              "Purok 5"
            ],
            "lat": 13.1881219,
            "lng": 123.7098569
          },
          {
            "name": "Mayon",
            "puroks": [
              "Purok 1",
              "Purok 2",
              "Purok 3",
              "Purok 4",
              "Purok 5"
            ],
            "lat": 13.0633387,
            "lng": 123.7098569
          },
          {
            "name": "Mi-isi",
            "puroks": [
              "Purok 1",
              "Purok 2",
              "Purok 3",
              "Purok 4",
              "Purok 5"
            ],
            "lat": 13.2085064,
            "lng": 123.69029
          },
          {
            "name": "Nabasan",
            "puroks": [
              "Purok 1",
              "Purok 2",
              "Purok 3",
              "Purok 4",
              "Purok 5"
            ],
            "lat": 13.033261,
            "lng": 123.6427533
          },
          {
            "name": "Namantao",
            "puroks": [
              "Purok 1",
              "Purok 2",
              "Purok 3",
              "Purok 4",
              "Purok 5"
            ],
            "lat": 13.0899281,
            "lng": 123.6986763
          },
          {
            "name": "Pandan",
            "puroks": [
              "Purok 1",
              "Purok 2",
              "Purok 3",
              "Purok 4",
              "Purok 5"
            ],
            "lat": 13.1633344,
            "lng": 123.6833008
          },
          {
            "name": "Peñafrancia",
            "puroks": [
              "Purok 1",
              "Purok 2",
              "Purok 3",
              "Purok 4",
              "Purok 5",
              "Purok 6",
              "Purok 7"
            ],
            "lat": 13.1350652,
            "lng": 123.7056643
          },
          {
            "name": "Sagpon",
            "puroks": [
              "Purok 1",
              "Purok 2",
              "Purok 3",
              "Purok 4",
              "Purok 5",
              "Purok 6"
            ],
            "lat": 13.147951,
            "lng": 123.720511
          },
          {
            "name": "Salvacion",
            "puroks": [
              "Purok 1",
              "Purok 2",
              "Purok 3",
              "Purok 4",
              "Purok 5"
            ],
            "lat": 13.1830993,
            "lng": 123.6763111
          },
          {
            "name": "San Jose",
            "puroks": [
              "Purok 1",
              "Purok 2",
              "Purok 3",
              "Purok 4",
              "Purok 5"
            ],
            "lat": 13.1448837,
            "lng": 123.7169462
          },
          {
            "name": "San Rafael",
            "puroks": [
              "Purok 1",
              "Purok 2",
              "Purok 3",
              "Purok 4",
              "Purok 5"
            ],
            "lat": 13.0414185,
            "lng": 123.6637283
          },
          {
            "name": "San Ramon",
            "puroks": [
              "Purok 1",
              "Purok 2",
              "Purok 3",
              "Purok 4",
              "Purok 5"
            ],
            "lat": 13.0474867,
            "lng": 123.6819029
          },
          {
            "name": "San Roque",
            "puroks": [
              "Purok 1",
              "Purok 2",
              "Purok 3",
              "Purok 4",
              "Purok 5",
              "Purok 6",
              "Purok 7"
            ],
            "lat": 13.1499435,
            "lng": 123.7105556
          },
          {
            "name": "San Vicente Grande",
            "puroks": [
              "Purok 1",
              "Purok 2",
              "Purok 3",
              "Purok 4",
              "Purok 5"
            ],
            "lat": 13.0308069,
            "lng": 123.6595337
          },
          {
            "name": "San Vicente Pequeño",
            "puroks": [
              "Purok 1",
              "Purok 2",
              "Purok 3",
              "Purok 4",
              "Purok 5"
            ],
            "lat": 13.079287,
            "lng": 123.6777091
          },
          {
            "name": "Sipi",
            "puroks": [
              "Purok 1",
              "Purok 2",
              "Purok 3",
              "Purok 4",
              "Purok 5",
              "Purok 6",
              "Purok 7"
            ],
            "lat": 13.1420421,
            "lng": 123.7133506
          },
          {
            "name": "Tabon-tabon",
            "puroks": [
              "Purok 1",
              "Purok 2",
              "Purok 3",
              "Purok 4",
              "Purok 5"
            ],
            "lat": 13.1248646,
            "lng": 123.6986763
          },
          {
            "name": "Tagas",
            "puroks": [
              "Purok 1",
              "Purok 2",
              "Purok 3",
              "Purok 4",
              "Purok 5",
              "Purok 6",
              "Purok 7",
              "Purok 8",
              "Purok 9"
            ],
            "lat": 13.160044,
            "lng": 123.7224335
          },
          {
            "name": "Talahib",
            "puroks": [
              "Purok 1",
              "Purok 2",
              "Purok 3",
              "Purok 4",
              "Purok 5"
            ],
            "lat": 13.0993042,
            "lng": 123.7112544
          },
          {
            "name": "Villahermosa",
            "puroks": [
              "Purok 1",
              "Purok 2",
              "Purok 3",
              "Purok 4",
              "Purok 5"
            ],
            "lat": 13.0433878,
            "lng": 123.7098569
          }
        ]
      },
      {
        "name": "Legazpi City",
        "barangays": [
          {
            "name": "Barangay 47 - Arimbay",
            "puroks": [
              "Purok 1",
              "Purok 2",
              "Purok 3",
              "Purok 4",
              "Purok 5",
              "Purok 6",
              "Purok 7"
            ],
            "lat": 13.1833618,
            "lng": 123.7503754
          },
          {
            "name": "Barangay 64 - Bagacay",
            "puroks": [
              "Purok 1",
              "Purok 2",
              "Purok 3",
              "Purok 4",
              "Purok 5",
              "Purok 6",
              "Purok 7"
            ],
            "lat": 13.0781459,
            "lng": 123.7530722
          },
          {
            "name": "Barangay 48 - Bagong Abre",
            "puroks": [
              "Purok 1",
              "Purok 2",
              "Purok 3",
              "Purok 4",
              "Purok 5",
              "Purok 6",
              "Purok 7"
            ],
            "lat": 13.1885378,
            "lng": 123.744274
          },
          {
            "name": "Barangay 8 - Bagumbayan",
            "puroks": [
              "Purok 1",
              "Purok 2",
              "Purok 3",
              "Purok 4",
              "Purok 5",
              "Purok 6",
              "Purok 7"
            ],
            "lat": 13.140902,
            "lng": 123.7168441
          },